{"pageProps":{"city":{"slug":"braine-lalleud","name":"Braine-l'Alleud","center":{"lat":50.683627,"lon":4.3749516},"bbox":[4.25,50.6,4.5,50.78]},"items":[{"osm_id":34717469,"type":"way","lat":50.6880006,"lon":4.3900578,"tags":{"amenity":"school","name":"Collège Cardinal Mercier"},"timestamp":"2022-10-07T14:42:53Z","user":{"name":"leonlapin","id":683726}},{"osm_id":40130459,"type":"way","lat":50.6890516,"lon":4.3804689,"tags":{"addr:city":"Braine-l'Alleud","addr:country":"BE","addr:housenumber":"102","addr:postcode":"1420","addr:street":"Rue de la Vallée Bailly","amenity":"school","denomination":"roman_catholic","description":"Vallée Bailly comprend l’École fondamentale libre Vallée Bailly (maternel & primaire) et l’Institut Vallée Bailly (secondaire).","isced:level":"0;1;2;3","name":"Vallée Bailly","phone":"+32 2 389 49 50","religion":"christian","website":"https://www.valleebailly.be/"},"timestamp":"2023-06-16T06:05:47Z","user":{"name":"eMerzh","id":15399}},{"osm_id":104841671,"type":"way","lat":50.6439592,"lon":4.3628324,"tags":{"addr:housenumber":"7","addr:postcode":"1428","addr:street":"Rue René Francq","amenity":"school","name":"École Primaire Communale \"Prévert\"","ref:fase":"559/1000"},"timestamp":"2025-09-27T08:36:24Z","user":{"name":"Maxou1400","id":18357292}},{"osm_id":164109478,"type":"way","lat":50.6858063,"lon":4.3720275,"tags":{"addr:city":"Braine-l'Alleud","addr:housenumber":"14","addr:postcode":"1420","addr:street":"Rue Pierre Flamand","amenity":"school","denomination":"catholic","name":"Institut Saint Jacques","religion":"christian","website":"http://new.institut-saint-jacques.be/"},"timestamp":"2024-07-21T06:37:04Z","user":{"name":"eMerzh","id":15399}},{"osm_id":164959055,"type":"way","lat":50.6657761,"lon":4.3413509,"tags":{"addr:city":"Braine-l'Alleud","addr:housenumber":"51","addr:postcode":"1421","addr:street":"Rue du Cimetière","amenity":"school","name":"École communale Le Grand Frêne","website":"https://ecole-grand-frene.braine-lalleud.be/fr/copy_accueil.html"},"timestamp":"2022-08-29T09:19:18Z","user":{"name":"leonlapin","id":683726}},{"osm_id":166278337,"type":"way","lat":50.6434005,"lon":4.3206074,"tags":{"addr:city":"Bois-Seigneur-Isaac","addr:housenumber":"19","addr:postcode":"1421","addr:street":"Rue Armand De Moor","amenity":"school","name":"École Saint Jean-Baptiste","phone":"+32 67 21 90 09"},"timestamp":"2023-10-17T08:00:56Z","user":{"name":"eMerzh","id":15399}},{"osm_id":438779165,"type":"way","lat":50.6812532,"lon":4.3664352,"tags":{"addr:city":"Braine-l'Alleud","addr:housenumber":"49","addr:postcode":"1420","addr:street":"Rue du Château","amenity":"school","building":"school","building:levels":"2","contact:email":"academie.musique@braine-lalleud.be","contact:facebook":"https://www.facebook.com/pg/Académie-de-Musique-de-Braine-lAlleud-558489904337942","contact:fax":"+32 2 854 07 29","contact:phone":"+32 2 854 07 20","contact:website":"https://academie-de-musique.braine-lalleud.be","description":"Musique - Arts de la Parole - Danse","name":"Académie de Musique de Braine-l'Alleud \"Yolande Uyttenhove\"","school":"music"},"timestamp":"2023-10-22T11:47:04Z","user":{"name":"eMerzh","id":15399}},{"osm_id":450070766,"type":"way","lat":50.6838808,"lon":4.3832453,"tags":{"addr:city":"Braine-l'Alleud","addr:housenumber":"35","addr:postcode":"1420","addr:street":"Boulevard de l'Europe","amenity":"school","barrier":"fence","name":"Athénée royal Riva-Bella"},"timestamp":"2022-07-13T07:32:21Z","user":{"name":"eMerzh","id":15399}},{"osm_id":477477320,"type":"way","lat":50.7034661,"lon":4.3557864,"tags":{"addr:city":"Braine-l'Alleud","addr:housenumber":"60","addr:postcode":"1420","addr:street":"Chemin de l'Ermite","amenity":"school","denomination":"catholic","name":"Institut Saint-Joseph","religion":"christian","website":"https://www.st-joseph.net/"},"timestamp":"2024-07-21T06:43:32Z","user":{"name":"eMerzh","id":15399}},{"osm_id":585055022,"type":"way","lat":50.6456797,"lon":4.3626512,"tags":{"addr:city":"Lillois-Witterzée","addr:housenumber":"21","addr:postcode":"1428","addr:street":"Rue René Francq","amenity":"school","denomination":"catholic","email":"info@st-leon.be","name":"École Saint-Léon","phone":"+32 2 387 08 07","religion":"christian","school":"elementary","school:FR":"maternelle","website":"http://www.st-leon.be/"},"timestamp":"2022-06-21T21:25:58Z","user":{"name":"eMerzh","id":15399}},{"osm_id":651039561,"type":"way","lat":50.6940787,"lon":4.3686914,"tags":{"addr:city":"Braine-l'Alleud","addr:housenumber":"292","addr:postcode":"1420","addr:street":"Chaussée d'Alsemberg","amenity":"school","denomination":"catholic","grades":"02","name":"La Petite Ecole dans la Prairie","phone":"+32 2 384 32 57","religion":"christian","school:FR":"maternelle","website":"https://sainte-bernadette.be/"},"timestamp":"2024-12-12T16:10:49Z","user":{"name":"tansu_bla","id":22278927}},{"osm_id":725269062,"type":"way","lat":50.679185,"lon":4.3718372,"tags":{"addr:city":"Braine-l'Alleud","addr:housenumber":"2","addr:postcode":"1420","addr:street":"Rue Saint-Laurent","amenity":"school","name":"Athénée Royal de Braine-l'Alleud - Internat"},"timestamp":"2023-11-30T13:37:28Z","user":{"name":"eMerzh","id":15399}},{"osm_id":734248844,"type":"way","lat":50.6832233,"lon":4.3681365,"tags":{"addr:city":"Braine-l'Alleud","addr:housenumber":"24","addr:postcode":"1420","addr:street":"Rue des Jambes","amenity":"school","denomination":"catholic","name":"École fondamentale libre Institut Sainte-Famille","religion":"christian"},"timestamp":"2023-10-22T11:47:04Z","user":{"name":"eMerzh","id":15399}},{"osm_id":935683142,"type":"way","lat":50.6754702,"lon":4.3843945,"tags":{"addr:city":"Braine-l'Alleud","addr:housenumber":"203","addr:postcode":"1420","addr:street":"Avenue Alphonse Allard","amenity":"school","isced:level":"0;1","max_age":"12","min_age":"2,5","name":"École Sainte-Bernadette","ref:fase":"560/1001","religion":"christian","website":"http://sainte-bernadette.be"},"timestamp":"2023-09-25T20:15:13Z","user":{"name":"eMerzh","id":15399}},{"osm_id":1020400089,"type":"way","lat":50.6646604,"lon":4.3457054,"tags":{"addr:city":"Ophain-Bois-Seigneur-Isaac","addr:housenumber":"21","addr:postcode":"1421","addr:street":"Rue du Cimetière","amenity":"school","name":"École Anne Marie","website":"https://www.ecole-anne-marie.be/"},"timestamp":"2023-10-22T11:47:04Z","user":{"name":"eMerzh","id":15399}},{"osm_id":1078127610,"type":"way","lat":50.6794196,"lon":4.368805,"tags":{"addr:city":"Braine-l'Alleud","addr:housenumber":"31","addr:postcode":"1420","addr:street":"Rue au Gué","amenity":"school","email":"info@ecole-esperluette.be","name":"École L'Esperluette","ref:fase":"2494/5018","religion":"none","school":"kindergarten;primary","school:gender":"mixed","website":"https://ecole-esperluette.be"},"timestamp":"2024-10-30T14:11:54Z","user":{"name":"joost schouppe","id":67832}},{"osm_id":1078129026,"type":"way","lat":50.6831473,"lon":4.3857419,"tags":{"addr:city":"Braine-l'Alleud","addr:housenumber":"59","addr:postcode":"1420","addr:street":"Avenue de Guéménée","amenity":"school","name":"École Les Papillons"},"timestamp":"2022-07-13T07:32:21Z","user":{"name":"eMerzh","id":15399}},{"osm_id":1078130530,"type":"way","lat":50.7032813,"lon":4.3770758,"tags":{"addr:city":"Braine-l'Alleud","addr:housenumber":"7","addr:postcode":"1420","addr:street":"Rue du Soleil Levant","amenity":"school","name":"École Le Soleil Levant"},"timestamp":"2022-07-13T07:38:25Z","user":{"name":"eMerzh","id":15399}},{"osm_id":1217581583,"type":"way","lat":50.6814553,"lon":4.366872,"tags":{"addr:city":"Braine-l'Alleud","addr:housenumber":"47","addr:postcode":"1420","addr:street":"Rue du Château","amenity":"school","building":"yes","building:levels":"2","contact:email":"ecoledesarts@braine-lalleud.be","contact:phone":"+32 2 854 07 00","contact:website":"https://ecole-des-arts.braine-lalleud.be","name":"École des Arts de Braine-l'Alleud","school":"art","source:geometry:date":"2016-11-23","source:geometry:ref":"Picc/1399130"},"timestamp":"2024-06-13T12:41:35Z","user":{"name":"joost schouppe","id":67832}},{"osm_id":1271922398,"type":"way","lat":50.6637712,"lon":4.3449669,"tags":{"amenity":"school","name":"La Ribambelle","operator":"Commune de Braine-l'Alleud"},"timestamp":"2024-04-12T08:48:28Z","user":{"name":"leonlapin","id":683726}}],"history":[{"date":"2025-08-30T22:00:00.000Z","count":20},{"date":"2025-08-31T22:00:00.000Z","count":20},{"date":"2025-09-01T22:00:00.000Z","count":20},{"date":"2025-09-02T22:00:00.000Z","count":20},{"date":"2025-09-03T22:00:00.000Z","count":20},{"date":"2025-09-04T22:00:00.000Z","count":20},{"date":"2025-09-05T22:00:00.000Z","count":20},{"date":"2025-09-06T22:00:00.000Z","count":20},{"date":"2025-09-07T22:00:00.000Z","count":20},{"date":"2025-09-08T22:00:00.000Z","count":20},{"date":"2025-09-09T22:00:00.000Z","count":20},{"date":"2025-09-10T22:00:00.000Z","count":20},{"date":"2025-09-11T22:00:00.000Z","count":20},{"date":"2025-09-12T22:00:00.000Z","count":20},{"date":"2025-09-13T22:00:00.000Z","count":20},{"date":"2025-09-14T22:00:00.000Z","count":20},{"date":"2025-09-15T22:00:00.000Z","count":20},{"date":"2025-09-16T22:00:00.000Z","count":20},{"date":"2025-09-17T22:00:00.000Z","count":20},{"date":"2025-09-18T22:00:00.000Z","count":20},{"date":"2025-09-19T22:00:00.000Z","count":20},{"date":"2025-09-20T22:00:00.000Z","count":20},{"date":"2025-09-21T22:00:00.000Z","count":20},{"date":"2025-09-22T22:00:00.000Z","count":20},{"date":"2025-09-23T22:00:00.000Z","count":20},{"date":"2025-09-24T22:00:00.000Z","count":20},{"date":"2025-09-25T22:00:00.000Z","count":20},{"date":"2025-09-26T22:00:00.000Z","count":20},{"date":"2025-09-27T22:00:00.000Z","count":20},{"date":"2025-09-28T22:00:00.000Z","count":20},{"date":"2025-09-29T22:00:00.000Z","count":20}],"contributors":[{"count":"13","username":"eMerzh"},{"count":"3","username":"leonlapin"},{"count":"1","username":"tansu_bla"},{"count":"1","username":"Maxou1400"},{"count":"2","username":"joost schouppe"}],"listDefinition":{"slug":"school","name":"Écoles","query":"nwr[\"amenity\"=\"school\"](area.b);","component":"School","tags":"\"amenity\"=\"school\""}},"__N_SSG":true}