{"pageProps":{"city":{"slug":"braine-lalleud","name":"Braine-l'Alleud","center":{"lat":50.683627,"lon":4.3749516},"bbox":[4.25,50.6,4.5,50.78]},"items":[{"lat":50.6880006,"lon":4.3900578,"tags":{"name":"Collège Cardinal Mercier","amenity":"school"},"type":"way","user":{"id":683726,"name":"leonlapin"},"osm_id":34717469,"timestamp":"2022-10-07T14:42:53Z"},{"lat":50.6890516,"lon":4.3804689,"tags":{"name":"Vallée Bailly","phone":"+32 2 389 49 50","amenity":"school","website":"https://www.valleebailly.be/","religion":"christian","addr:city":"Braine-l'Alleud","addr:street":"Rue de la Vallée Bailly","description":"Vallée Bailly comprend l’École fondamentale libre Vallée Bailly (maternel & primaire) et l’Institut Vallée Bailly (secondaire).","isced:level":"0;1;2;3","addr:country":"BE","denomination":"roman_catholic","addr:postcode":"1420","addr:housenumber":"102"},"type":"way","user":{"id":15399,"name":"eMerzh"},"osm_id":40130459,"timestamp":"2023-06-16T06:05:47Z"},{"lat":50.6439537,"lon":4.3630538,"tags":{"name":"École Primaire Communale \"Prévert\"","amenity":"school","ref:fase":"559/1000","addr:street":"Rue René Francq","addr:postcode":"1428","addr:housenumber":"7"},"type":"way","user":{"id":15399,"name":"eMerzh"},"osm_id":104841671,"timestamp":"2024-04-22T18:59:01Z"},{"lat":50.6858063,"lon":4.3720275,"tags":{"name":"Institut Saint Jacques","amenity":"school","website":"http://new.institut-saint-jacques.be/","religion":"christian","addr:city":"Braine-l'Alleud","addr:street":"Rue Pierre Flamand","denomination":"catholic","addr:postcode":"1420","addr:housenumber":"14"},"type":"way","user":{"id":15399,"name":"eMerzh"},"osm_id":164109478,"timestamp":"2024-07-21T06:37:04Z"},{"lat":50.6657761,"lon":4.3413509,"tags":{"name":"École communale Le Grand Frêne","amenity":"school","website":"https://ecole-grand-frene.braine-lalleud.be/fr/copy_accueil.html","addr:city":"Braine-l'Alleud","addr:street":"Rue du Cimetière","addr:postcode":"1421","addr:housenumber":"51"},"type":"way","user":{"id":683726,"name":"leonlapin"},"osm_id":164959055,"timestamp":"2022-08-29T09:19:18Z"},{"lat":50.6434005,"lon":4.3206074,"tags":{"name":"École Saint Jean-Baptiste","phone":"+32 67 21 90 09","amenity":"school","addr:city":"Bois-Seigneur-Isaac","addr:street":"Rue Armand De Moor","addr:postcode":"1421","addr:housenumber":"19"},"type":"way","user":{"id":15399,"name":"eMerzh"},"osm_id":166278337,"timestamp":"2023-10-17T08:00:56Z"},{"lat":50.6812532,"lon":4.3664352,"tags":{"name":"Académie de Musique de Braine-l'Alleud \"Yolande Uyttenhove\"","school":"music","amenity":"school","building":"school","addr:city":"Braine-l'Alleud","addr:street":"Rue du Château","contact:fax":"+32 2 854 07 29","description":"Musique - Arts de la Parole - Danse","addr:postcode":"1420","contact:email":"academie.musique@braine-lalleud.be","contact:phone":"+32 2 854 07 20","building:levels":"2","contact:website":"https://academie-de-musique.braine-lalleud.be","addr:housenumber":"49","contact:facebook":"https://www.facebook.com/pg/Académie-de-Musique-de-Braine-lAlleud-558489904337942"},"type":"way","user":{"id":15399,"name":"eMerzh"},"osm_id":438779165,"timestamp":"2023-10-22T11:47:04Z"},{"lat":50.6838808,"lon":4.3832453,"tags":{"name":"Athénée royal Riva-Bella","amenity":"school","barrier":"fence","addr:city":"Braine-l'Alleud","addr:street":"Boulevard de l'Europe","addr:postcode":"1420","addr:housenumber":"35"},"type":"way","user":{"id":15399,"name":"eMerzh"},"osm_id":450070766,"timestamp":"2022-07-13T07:32:21Z"},{"lat":50.7034661,"lon":4.3557864,"tags":{"name":"Institut Saint-Joseph","amenity":"school","website":"https://www.st-joseph.net/","religion":"christian","addr:city":"Braine-l'Alleud","addr:street":"Chemin de l'Ermite","denomination":"catholic","addr:postcode":"1420","addr:housenumber":"60"},"type":"way","user":{"id":15399,"name":"eMerzh"},"osm_id":477477320,"timestamp":"2024-07-21T06:43:32Z"},{"lat":50.6456797,"lon":4.3626512,"tags":{"name":"École Saint-Léon","email":"info@st-leon.be","phone":"+32 2 387 08 07","school":"elementary","amenity":"school","website":"http://www.st-leon.be/","religion":"christian","addr:city":"Lillois-Witterzée","school:FR":"maternelle","addr:street":"Rue René Francq","denomination":"catholic","addr:postcode":"1428","addr:housenumber":"21"},"type":"way","user":{"id":15399,"name":"eMerzh"},"osm_id":585055022,"timestamp":"2022-06-21T21:25:58Z"},{"lat":50.6940787,"lon":4.3686914,"tags":{"name":"La Petite Ecole dans la Prairie","phone":"+32 2 384 32 57","grades":"02","amenity":"school","website":"https://sainte-bernadette.be/","religion":"christian","addr:city":"Braine-l'Alleud","school:FR":"maternelle","addr:street":"Chaussée d'Alsemberg","denomination":"catholic","addr:postcode":"1420","addr:housenumber":"292"},"type":"way","user":{"id":22278927,"name":"tansu_bla"},"osm_id":651039561,"timestamp":"2024-12-12T16:10:49Z"},{"lat":50.679185,"lon":4.3718372,"tags":{"name":"Athénée Royal de Braine-l'Alleud - Internat","amenity":"school","addr:city":"Braine-l'Alleud","addr:street":"Rue Saint-Laurent","addr:postcode":"1420","addr:housenumber":"2"},"type":"way","user":{"id":15399,"name":"eMerzh"},"osm_id":725269062,"timestamp":"2023-11-30T13:37:28Z"},{"lat":50.6832233,"lon":4.3681365,"tags":{"name":"École fondamentale libre Institut Sainte-Famille","amenity":"school","religion":"christian","addr:city":"Braine-l'Alleud","addr:street":"Rue des Jambes","denomination":"catholic","addr:postcode":"1420","addr:housenumber":"24"},"type":"way","user":{"id":15399,"name":"eMerzh"},"osm_id":734248844,"timestamp":"2023-10-22T11:47:04Z"},{"lat":50.6754702,"lon":4.3843945,"tags":{"name":"École Sainte-Bernadette","amenity":"school","max_age":"12","min_age":"2,5","website":"http://sainte-bernadette.be","ref:fase":"560/1001","religion":"christian","addr:city":"Braine-l'Alleud","addr:street":"Avenue Alphonse Allard","isced:level":"0;1","addr:postcode":"1420","addr:housenumber":"203"},"type":"way","user":{"id":15399,"name":"eMerzh"},"osm_id":935683142,"timestamp":"2023-09-25T20:15:13Z"},{"lat":50.6646604,"lon":4.3457054,"tags":{"name":"École Anne Marie","amenity":"school","website":"https://www.ecole-anne-marie.be/","addr:city":"Ophain-Bois-Seigneur-Isaac","addr:street":"Rue du Cimetière","addr:postcode":"1421","addr:housenumber":"21"},"type":"way","user":{"id":15399,"name":"eMerzh"},"osm_id":1020400089,"timestamp":"2023-10-22T11:47:04Z"},{"lat":50.6794196,"lon":4.368805,"tags":{"name":"École L'Esperluette","email":"info@ecole-esperluette.be","school":"kindergarten;primary","amenity":"school","website":"https://ecole-esperluette.be","ref:fase":"2494/5018","religion":"none","addr:city":"Braine-l'Alleud","addr:street":"Rue au Gué","addr:postcode":"1420","school:gender":"mixed","addr:housenumber":"31"},"type":"way","user":{"id":67832,"name":"joost schouppe"},"osm_id":1078127610,"timestamp":"2024-10-30T14:11:54Z"},{"lat":50.6831473,"lon":4.3857419,"tags":{"name":"École Les Papillons","amenity":"school","addr:city":"Braine-l'Alleud","addr:street":"Avenue de Guéménée","addr:postcode":"1420","addr:housenumber":"59"},"type":"way","user":{"id":15399,"name":"eMerzh"},"osm_id":1078129026,"timestamp":"2022-07-13T07:32:21Z"},{"lat":50.7032813,"lon":4.3770758,"tags":{"name":"École Le Soleil Levant","amenity":"school","addr:city":"Braine-l'Alleud","addr:street":"Rue du Soleil Levant","addr:postcode":"1420","addr:housenumber":"7"},"type":"way","user":{"id":15399,"name":"eMerzh"},"osm_id":1078130530,"timestamp":"2022-07-13T07:38:25Z"},{"lat":50.6814553,"lon":4.366872,"tags":{"name":"École des Arts de Braine-l'Alleud","school":"art","amenity":"school","building":"yes","addr:city":"Braine-l'Alleud","addr:street":"Rue du Château","addr:postcode":"1420","contact:email":"ecoledesarts@braine-lalleud.be","contact:phone":"+32 2 854 07 00","building:levels":"2","contact:website":"https://ecole-des-arts.braine-lalleud.be","addr:housenumber":"47","source:geometry:ref":"Picc/1399130","source:geometry:date":"2016-11-23"},"type":"way","user":{"id":67832,"name":"joost schouppe"},"osm_id":1217581583,"timestamp":"2024-06-13T12:41:35Z"},{"lat":50.6637712,"lon":4.3449669,"tags":{"name":"La Ribambelle","amenity":"school","operator":"Commune de Braine-l'Alleud"},"type":"way","user":{"id":683726,"name":"leonlapin"},"osm_id":1271922398,"timestamp":"2024-04-12T08:48:28Z"}],"history":[{"date":"2025-02-22T23:00:00.000Z","count":20},{"date":"2025-02-23T23:00:00.000Z","count":20},{"date":"2025-02-24T23:00:00.000Z","count":20},{"date":"2025-02-25T23:00:00.000Z","count":20},{"date":"2025-02-26T23:00:00.000Z","count":20},{"date":"2025-02-27T23:00:00.000Z","count":20},{"date":"2025-02-28T23:00:00.000Z","count":20},{"date":"2025-03-01T23:00:00.000Z","count":20},{"date":"2025-03-02T23:00:00.000Z","count":20},{"date":"2025-03-03T23:00:00.000Z","count":20},{"date":"2025-03-04T23:00:00.000Z","count":20},{"date":"2025-03-05T23:00:00.000Z","count":20},{"date":"2025-03-06T23:00:00.000Z","count":20},{"date":"2025-03-07T23:00:00.000Z","count":20},{"date":"2025-03-08T23:00:00.000Z","count":20},{"date":"2025-03-09T23:00:00.000Z","count":20},{"date":"2025-03-10T23:00:00.000Z","count":20},{"date":"2025-03-11T23:00:00.000Z","count":20},{"date":"2025-03-12T23:00:00.000Z","count":20},{"date":"2025-03-13T23:00:00.000Z","count":20},{"date":"2025-03-14T23:00:00.000Z","count":20},{"date":"2025-03-15T23:00:00.000Z","count":20},{"date":"2025-03-16T23:00:00.000Z","count":20},{"date":"2025-03-17T23:00:00.000Z","count":20},{"date":"2025-03-18T23:00:00.000Z","count":20},{"date":"2025-03-19T23:00:00.000Z","count":20},{"date":"2025-03-20T23:00:00.000Z","count":20},{"date":"2025-03-21T23:00:00.000Z","count":20},{"date":"2025-03-22T23:00:00.000Z","count":20},{"date":"2025-03-23T23:00:00.000Z","count":20},{"date":"2025-03-24T23:00:00.000Z","count":20}],"contributors":[{"count":"1","username":"tansu_bla"},{"count":"2","username":"joost schouppe"},{"count":"14","username":"eMerzh"},{"count":"3","username":"leonlapin"}],"listDefinition":{"slug":"school","name":"Écoles","query":"nwr[\"amenity\"=\"school\"](area.b);","component":"School","tags":"\"amenity\"=\"school\""}},"__N_SSG":true}