{"pageProps":{"items":[{"osm_id":346595729,"type":"node","lat":50.698367,"lon":4.3626722,"tags":{"addr:city":"Braine-l'Alleud","addr:country":"BE","addr:housenumber":"499","addr:postcode":"1420","addr:street":"Chaussée d'Alsemberg","amenity":"restaurant","cuisine":"asian","name":"Zen","phone":"+32 2 387 38 88"}},{"osm_id":1029943071,"type":"node","lat":50.6646667,"lon":4.3146385,"tags":{"amenity":"restaurant","name":"Abbaye de Nizelles","website":"https://abbayedenizelles.be/"}},{"osm_id":1222412857,"type":"node","lat":50.6869004,"lon":4.4049675,"tags":{"amenity":"restaurant","cuisine":"french","internet_access":"no","name":"Wood Wayne","phone":"+32 2 387 54 35","smoking":"no","website":"http://woodwayne.be","wheelchair":"no"}},{"osm_id":1306996467,"type":"node","lat":50.6851516,"lon":4.3768722,"tags":{"addr:city":"Braine-l'Alleud","addr:housenumber":"5","addr:postcode":"1420","addr:street":"Avenue Albert 1er","air_conditioning":"yes","amenity":"restaurant","contact:email":"dragon.king_resto@hotmail.be","contact:facebook":"https://www.facebook.com/pg/DragonRoyalBla","cuisine":"chinese","delivery":"no","name":"Le Dragon Royal","opening_hours":"Mo-Fr 12:00-14:30, 18:00-23:00; Sa-Su 12:00-14:30, 18:00-24:00; Tu off; PH Tu 12:00-14:30, 18:00-24:00","outdoor_seating":"no","payment:cash":"yes","payment:mastercard":"yes","payment:visa":"yes","phone":"+32 2 385 12 88","smoking":"no","takeaway":"yes","website":"http://www.dragonroyal-resto.be/","wheelchair":"yes"}},{"osm_id":1774857936,"type":"node","lat":50.6854622,"lon":4.3752298,"tags":{"addr:city":"Braine-l'Alleud","addr:housenumber":"9","addr:postcode":"1420","addr:street":"Place de la Gare","amenity":"restaurant","contact:email":"info@poivrenoir.be","cuisine":"french","name":"Poivre noir","opening_hours":"We, Su, PH off; Mo 12:00-14:00; Tu,Th,Fr, Sa 12:00-14:00, 19:00-21:00","outdoor_seating":"patio","phone":"+32 2 385 14 12","smoking":"no","website":"http://www.poivrenoir.be"}},{"osm_id":1904541688,"type":"node","lat":50.6306264,"lon":4.3539209,"tags":{"addr:city":"Lillois-Witterzee","addr:country":"BE","addr:housenumber":"491","addr:postcode":"1428","addr:street":"Grand'Route","amenity":"restaurant","cuisine":"french","name":"Tichoux, Georges et Louis","phone":"+32 67 21 65 33"}},{"osm_id":2306365745,"type":"node","lat":50.6968233,"lon":4.3650077,"tags":{"amenity":"restaurant","cuisine":"french","name":"Le 421","website":"https://www.le421.be/"}},{"osm_id":2463811867,"type":"node","lat":50.6679478,"lon":4.3529219,"tags":{"addr:city":"Ophain-Bois-Seigneur-Isaac","addr:country":"BE","addr:housename":"La Ferme du Moulin à Eau","addr:housenumber":"3","addr:postcode":"1421","addr:street":"Rue du Moulin à Eau","amenity":"restaurant","email":"info@lafermedumoulinaeau.be","fax":"+32 2 387 10 18","name":"La Ferme du Moulin à Eau","phone":"+32 2 387 02 12","website":"http://www.lafermedumoulinaeau.be"}},{"osm_id":2689880267,"type":"node","lat":50.644552,"lon":4.3663306,"tags":{"addr:city":"Lillois","addr:country":"BE","addr:housenumber":"121","addr:postcode":"1428","addr:street":"Grand'Route","amenity":"restaurant","cuisine":"italian","email":"iltempodi.lillois@gmail.com","internet_access":"no","internet_access:fee":"no","name":"Il Tempo Di","phone":"+32 2 385 13 38","smoking":"no","website":"http://www.iltempodi.be","wheelchair":"yes"}},{"osm_id":2689903471,"type":"node","lat":50.6856291,"lon":4.3753991,"tags":{"addr:city":"Braine-l'Alleud","addr:country":"BE","addr:housenumber":"12","addr:postcode":"1420","addr:street":"Place de la Gare","air_conditioning":"yes","amenity":"restaurant","cuisine":"vietnamese","internet_access":"yes","name":"Saigon Bistro","opening_hours":"Su-Mo off; Tu-Fr 11:45-14:00, 17:30-22:00; Sa 17:30-22:00","payment:bancontact":"yes","payment:mastercard":"yes","payment:visa":"yes","phone":"+32 2 387 37 87","smoking":"no","takeaway":"yes","website":"https://saigonbistro.be/","wheelchair":"no"}},{"osm_id":2727519029,"type":"node","lat":50.6839138,"lon":4.4020033,"tags":{"addr:city":"Braine l'Alleud","addr:country":"BE","addr:housenumber":"87","addr:postcode":"1420","addr:street":"Chaussée de Nivelles","amenity":"restaurant","cuisine":"chinese","name":"La Chine Impériale","phone":"+32 2 384 05 20"}},{"osm_id":3020376199,"type":"node","lat":50.6979008,"lon":4.3588402,"tags":{"addr:city":"Braine-l'Alleud","addr:country":"BE","addr:housename":"Le monde est petit","addr:housenumber":"65","addr:postcode":"1420","addr:street":"Chaussée de Tubize","amenity":"restaurant","cuisine":"chinese","microbrewery":"yes","name":"Le monde est petit","opening_hours":"Mo-Fr 12:00-14:00, 18:00-22:00","phone":"+32 2 384 40 29","website":"https://lmep65.be/"}},{"osm_id":3646271201,"type":"node","lat":50.6861692,"lon":4.380816,"tags":{"addr:city":"Braine-l'Alleud","addr:housenumber":"77","addr:postcode":"1420","addr:street":"Chaussée Reine Astrid","amenity":"restaurant","cuisine":"brasserie_bar_lounge","delivery":"no","name":"Le Yakapasta","opening_hours":"Mo,We,Th,Su 12:00-14:30,18:00-22:30; Fr 12:00-14:30,18:00-23:00; Sa 18:00-23:30","outdoor_seating":"yes","phone":"+32 2 385 13 90","smoking":"outside","takeaway":"yes","website":"https://leyakapasta.be/"}},{"osm_id":3822452851,"type":"node","lat":50.6860671,"lon":4.3841151,"tags":{"addr:city":"Braine-l'Alleud","addr:housenumber":"11","addr:postcode":"1420","addr:street":"Chaussée de Mont-Saint-Jean","amenity":"restaurant","cuisine":"sandwich","delivery":"yes","name":"La Pause","opening_hours":"Mo-Fr 07:45-15:00","phone":"+32 2 385 02 39","smoking":"no","takeaway":"yes","website":"https://www.lapause.be/"}},{"osm_id":3967711792,"type":"node","lat":50.6662718,"lon":4.3821286,"tags":{"access":"private","amenity":"restaurant","name":"Les Terrasses de l'Alliance"}},{"osm_id":4100852790,"type":"node","lat":50.6856315,"lon":4.3793515,"tags":{"addr:city":"Braine-l'Alleud","addr:housenumber":"34","addr:postcode":"1420","addr:street":"Chaussée Reine Astrid","amenity":"restaurant","contact:facebook":"https://www.facebook.com/pg/Maïnoï-114071650138450","craft":"caterer","cuisine":"thai","delivery":"yes","email":"info@mainoi.be","name":"Maïnoï","opening_hours":"Mo off; Tu-Th, Su 12:00-14:00, 18:00-21:00; Fr 12:00-14:00, 18:00-22:00; Sa 18:00-22:00","outdoor_seating":"terrace","payment:cash":"yes","payment:debit_cards":"yes","payment:mastercard":"yes","payment:visa":"yes","phone:mobile":"+32 484 39 80 01","takeaway":"yes","website":"https://www.mainoi.be"}},{"osm_id":4100860092,"type":"node","lat":50.6860493,"lon":4.3840488,"tags":{"addr:housenumber":"11","addr:street":"Chaussée de Mont-Saint-Jean","amenity":"restaurant","cuisine":"mediterranean","name":"Le Méditerannéen","opening_hours":"Mo-Th 18:00-22:00; Fr-Sa 18:00-22:30; Su 12:00-14:00, 18:00-22:00","phone":"+32 2 385 12 64","website":"https://www.lemediterraneen.be/"}},{"osm_id":4108448676,"type":"node","lat":50.68514,"lon":4.3679209,"tags":{"amenity":"restaurant","name":"Tasty","opening_hours":"Mo-Fr 07:00-19:00; Sa 08:00-18:00; Su,PH 09:30-18:00","website":"https://www.tasty.pro/"}},{"osm_id":4494813649,"type":"node","lat":50.6683433,"lon":4.378586,"tags":{"amenity":"restaurant","name":"Le Copyright","toilets:wheelchair":"yes","wheelchair":"yes"}},{"osm_id":5548148189,"type":"node","lat":50.6445051,"lon":4.3658965,"tags":{"amenity":"restaurant","name":"Croc & Go","phone":"+32 2 384 31 41"}},{"osm_id":6071739731,"type":"node","lat":50.6828424,"lon":4.3791866,"tags":{"addr:city":"Braine-l'Alleud","addr:housenumber":"18","addr:postcode":"1420","addr:street":"Avenue Raymond Brassinne","amenity":"restaurant","contact:facebook":"https://www.facebook.com/pg/WAW-MOMO-Braine-LAlleud-105182914650605/","contact:phone":"+32 2 203 43 00","cuisine":"sandwich;indian;thai","description":"Sandwicherie - Petite restauration","name":"WAW MOMO","opening_hours":"Mo-Th 10:00-15:00, 17:00-20:00; Fr 10:00-15:00, 17:00-21:00; Sa 17:00-21:00; Su 17:00-20:00","takeaway":"yes"}},{"osm_id":6102940369,"type":"node","lat":50.6965107,"lon":4.3621973,"tags":{"amenity":"restaurant","cuisine":"steak_house","name":"Le Super Grill","website":"http://lesupergrill.be/"}},{"osm_id":6102947663,"type":"node","lat":50.6961827,"lon":4.3650366,"tags":{"amenity":"restaurant","cuisine":"chinese","name":"Soho"}},{"osm_id":6376317001,"type":"node","lat":50.6894131,"lon":4.3628543,"tags":{"amenity":"restaurant","cuisine":"pizza","name":"Wotaland"}},{"osm_id":6683202617,"type":"node","lat":50.6878739,"lon":4.3687403,"tags":{"addr:city":"Braine-l'Alleud","addr:housenumber":"118","addr:postcode":"1420","addr:street":"Chaussée d'Alsemberg","amenity":"restaurant","contact:facebook":"https://fr-fr.facebook.com/Le-Cèdre-1105669799470020","cuisine":"lebanese","diet:vegetarian":"yes","name":"Le Cèdre","opening_hours":"Tu-Su 12:00-15:00, 18:00-22:00; Mo off","phone":"+32 2 384 73 75","takeaway":"yes"}},{"osm_id":7485812980,"type":"node","lat":50.6842167,"lon":4.3707239,"tags":{"addr:city":"Braine-l'Alleud","addr:housenumber":"13","addr:postcode":"1420","addr:street":"Place du Môle","amenity":"restaurant","contact:facebook":"https://www.facebook.com/pg/annyeongbla","cuisine":"korean","delivery":"yes","name":"Annyeong","opening_hours":"Mo off; Tu-Su 12:00-15:00, 18:00-22:00","phone:mobile":"+32 468 42 31 91","takeaway":"yes"}},{"osm_id":7486389891,"type":"node","lat":50.6840138,"lon":4.3711449,"tags":{"addr:city":"Braine-l'Alleud","addr:housenumber":"12","addr:postcode":"1420","addr:street":"Place du Môle","amenity":"restaurant","contact:facebook":"https://www.facebook.com/pg/monsieurpatate.be","cuisine":"regional","description":"Restaurant, traiteur et tea-room.","name":"Fromton","opening_hours":"Su-Mo off; Tu-We 10:00-18:30; Th-Sa 10:00-21:30","phone":"+32 2 387 52 00","takeaway":"yes","website":"https://www.fromton.be/"}},{"osm_id":7499181315,"type":"node","lat":50.6846438,"lon":4.3709986,"tags":{"addr:city":"Braine-l'Alleud","addr:housenumber":"2","addr:postcode":"1420","addr:street":"Place Cardinal Mercier","amenity":"restaurant","contact:email":"lamezzerie@gmail.be","contact:facebook":"https://www.facebook.com/pg/Ouzerie-La-Mezzerie-164810773596987","cuisine":"greek;mediterranean","name":"Ouzerie - La Mezzerie","opening_hours":"Fr-Sa 12:00-14:00, 19:00-21:30","phone":"+32 2 384 99 90","website":"http://www.lamezzerie.be"}},{"osm_id":7501798454,"type":"node","lat":50.6841442,"lon":4.3714256,"tags":{"addr:city":"Braine-l'Alleud","addr:housenumber":"4","addr:postcode":"1420","addr:street":"Avenue Léon Jourez","amenity":"restaurant","contact:facebook":"https://www.facebook.com/pg/ThaiSelect4u","craft":"caterer","cuisine":"thai","name":"Thaï Select","opening_hours":"Su-Mo PH off; Tu-Fr 11:30-15:00, 17:30-21:00; Sa 17:30-21:00","phone":"+32 2 384 16 78","takeaway":"yes","website":"https://thai-select.business.site"}},{"osm_id":7503738496,"type":"node","lat":50.6836137,"lon":4.3707973,"tags":{"addr:city":"Braine-l'Alleud","addr:housenumber":"11","addr:postcode":"1420","addr:street":"Rue des Fossés","addr:unit":"A","amenity":"restaurant","contact:email":"traiteursylvain@gmail.com","craft":"caterer","cuisine":"french;belgian","delivery":"yes","name":"Restaurant Sylvain","opening_hours":"Su-Fr 11:30-14:00; Sa off","payment:cash":"yes","payment:contactless":"yes","payment:debit_cards":"yes","payment:mastercard":"yes","payment:visa":"yes","phone:mobile":"+32 478 67 56 70","takeaway":"yes","website":"https://restaurantsylvain.eatbu.com"}},{"osm_id":7503738497,"type":"node","lat":50.6844073,"lon":4.3715884,"tags":{"addr:city":"Braine-l'Alleud","addr:housenumber":"17","addr:postcode":"1420","addr:street":"Avenue Léon Jourez","amenity":"restaurant","contact:email":"restaurant.lepavot@hotmail.com","contact:facebook":"https://www.facebook.com/pg/www.lepavot.be","cuisine":"french;polish","name":"Le Pavot","opening_hours":"Tu-We off; Th, Fr, Su, Mo 12:00-14:00, 19:00-21:00; Sa 19:00-21:00","phone":"+32 2 384 99 82","phone:mobile":"+32 497 14 19 30","reservation":"required","website":"https://www.lepavot.be"}},{"osm_id":7519579626,"type":"node","lat":50.6856995,"lon":4.379754,"tags":{"addr:city":"Braine-l'Alleud","addr:housenumber":"40","addr:postcode":"1420","addr:street":"Chaussée Reine Astrid","amenity":"restaurant","contact:email":"info@restaurant-indien.be","contact:facebook":"https://www.facebook.com/pg/tajmahalexpress1420","craft":"caterer","cuisine":"indian","delivery":"yes","description":"Restaurant et traiteur indien. Salon de thé/café avec vente de thés bios et de cafés.","diet:halal":"yes","name":"Taj Mahal","opening_hours":"Mo off; Tu, Th 12:00-21:00; We 12:00-21:30; Fr 16:00-22:00; Sa 12:00-22:00; Su 13:00-21:00","phone":"+32 2 852 10 47","takeaway":"yes","website":"http://www.restaurant-indien.be"}},{"osm_id":9087696001,"type":"node","lat":50.6920213,"lon":4.3406311,"tags":{"amenity":"restaurant"}},{"osm_id":9148459895,"type":"node","lat":50.6981026,"lon":4.3599234,"tags":{"amenity":"restaurant","cuisine":"sandwich","name":"L'Étoilé Sud","outdoor_seating":"yes","phone":"+3226739942","takeaway":"yes","website":"https://www.traiteur-etoile.be/"}},{"osm_id":9337761036,"type":"node","lat":50.6653896,"lon":4.3472147,"tags":{"amenity":"restaurant","cuisine":"italian","name":"La Padella","phone":"+32477776728","takeaway":"yes"}},{"osm_id":9573474220,"type":"node","lat":50.6857336,"lon":4.3784275,"tags":{"addr:city":"Braine-l'Alleud","addr:country":"BE","addr:housenumber":"31","addr:postcode":"1420","addr:street":"Chaussée Reine Astrid","amenity":"restaurant","contact:facebook":"https://www.facebook.com/tamishansushi/","contact:phone":"+32 2 640 14 04","contact:website":"https://tamishansushi.be","cuisine":"sushi;japanese","delivery":"yes","name":"Tamishan sushi","opening_hours":"Mo 11:30-14:30,18:00-22:00, Tu off, We-Su 11:30-14:30,18:00-22:00","phone":"+32 2 640 14 04","takeaway":"yes","website":"https://tamishansushi.be"}},{"osm_id":9751510064,"type":"node","lat":50.6955975,"lon":4.3412267,"tags":{"amenity":"restaurant","cuisine":"sandwich","name":"Le Welly","phone":"023840584","takeaway":"yes","website":"https://lewelly-express.be/"}},{"osm_id":9751545152,"type":"node","lat":50.6932521,"lon":4.3319785,"tags":{"addr:city":"Braine-l'Alleud","addr:country":"BE","addr:housenumber":"481","addr:postcode":"1420","addr:street":"Chaussée de Tubize","amenity":"restaurant","cuisine":"french","level":"2","name":"Toit","phone":"+3228970123","website":"http://www.toit-restaurant.be/"}},{"osm_id":98017053,"type":"way","lat":50.6687764,"lon":4.3875602,"tags":{"addr:city":"Braine l'Alleud","addr:country":"BE","addr:housenumber":"400","addr:postcode":"1420","addr:street":"Avenue Alphonse Allard","amenity":"restaurant","building":"yes","cuisine":"french","name":"Brasserie de l'Alliance","phone":"+32 2 387 17 20","smoking":"no","website":"http://sites.resto.com/lalliance/info.cfm"}},{"osm_id":101384678,"type":"way","lat":50.6603025,"lon":4.3796725,"tags":{"addr:city":"Braine l'Alleud","addr:country":"BE","addr:housenumber":"336","addr:postcode":"1420","addr:street":"Chaussée de Nivelles","amenity":"restaurant","building":"yes","cuisine":"french","email":"info@jacquesmarit.com","fax":"+32 2 384 10 42","microbrewery":"no","name":"Jacques Marit","phone":"+32 2 384 15 01","smoking":"no","website":"http://www.jacquesmarit.be"}},{"osm_id":105617805,"type":"way","lat":50.6410336,"lon":4.3627432,"tags":{"addr:city":"Lillois-Witterzée","addr:country":"BE","addr:housenumber":"262","addr:postcode":"1428","addr:street":"Grand'Route","amenity":"restaurant","building":"yes","cuisine":"french","email":"info@la-vache-sur-le-toit.be","name":"La Vache sur le Toit","opening_hours":"Mo-Su 12:00-14:30,19:00-22:30","phone":"+32 2 385 36 50","smoking":"no","website":"https://lavachesurletoit.be/","wheelchair":"no"}},{"osm_id":257181479,"type":"way","lat":50.6821961,"lon":4.3695288,"tags":{"addr:city":"Braine-l'Alleud","addr:housenumber":"13","addr:postcode":"1420","addr:street":"Grand-Place Baudouin Ier","amenity":"restaurant","building":"yes","clt:criteria":"M","clt:exception":"no","clt:inscription_date":"1983-08-29","clt:restricted":"no","cuisine":"italian","heritage":"4","heritage:operator":"clt","name":"Tra Di Noi"}},{"osm_id":397977658,"type":"way","lat":50.6813498,"lon":4.3990331,"tags":{"addr:city":"Braine l'Alleud","addr:housenumber":"100","addr:postcode":"1420","addr:street":"Chaussée de Nivelles","amenity":"restaurant","building":"yes","cuisine":"japanese","name":"Fuji","phone":"+32 2 387 43 67","smoking":"no","source:geometry:date":"2016-08-16","source:geometry:ref":"Picc/1723563","website":"https://www.restofuji.be/"}},{"osm_id":413115879,"type":"way","lat":50.682322,"lon":4.370043,"tags":{"addr:city":"Braine-l'Alleud","addr:housenumber":"6","addr:postcode":"1420","addr:street":"Rue Doyen Van Belle","amenity":"restaurant","building":"yes","building:levels":"3","cuisine":"french","name":"Philippe Meyers"}},{"osm_id":413119677,"type":"way","lat":50.6836802,"lon":4.3713169,"tags":{"addr:city":"Braine-l'Alleud","addr:housenumber":"23","addr:postcode":"1420","addr:street":"Rue des Fossés","amenity":"restaurant","building":"yes","building:levels":"3","cuisine":"chinese","name":"Jade Garden","opening_hours":"Th-Tu 12:00-14:00, 18:30-22:00","phone":"+32 2 385 01 77"}},{"osm_id":437039856,"type":"way","lat":50.6824568,"lon":4.3700934,"tags":{"addr:city":"Braine-l'Alleud","addr:housenumber":"7","addr:postcode":"1420","addr:street":"Rue Doyen Van Belle","amenity":"restaurant","building":"yes","name":"La Bonne Assiette"}},{"osm_id":437039866,"type":"way","lat":50.6831254,"lon":4.3703192,"tags":{"addr:city":"Braine-l'Alleud","addr:housenumber":"9","addr:postcode":"1420","addr:street":"Rue de l'Ancien Bourg","amenity":"restaurant","building":"yes","cuisine":"italian","name":"Les trois Apôtres"}},{"osm_id":439001039,"type":"way","lat":50.6793147,"lon":4.3668934,"tags":{"addr:city":"Braine-l'Alleud","addr:housenumber":"59","addr:postcode":"1420","addr:street":"Chaussée d'Ophain","amenity":"restaurant","building":"yes","cuisine":"friture","name":"M&M Comme à la maison","opening_hours":"Tu-Th 11:30-22:00; Fr 11:30-23:30; Sa-Su 11:30-22:00","payment:maestro":"yes","phone":"+32 2 3850507","roof:levels":"1","website":"https://mm-snack.com/"}},{"osm_id":729003818,"type":"way","lat":50.6832128,"lon":4.3741215,"tags":{"addr:city":"Braine-l'Alleud","addr:housenumber":"17","addr:postcode":"1420","addr:street":"Place Sainte-Anne","amenity":"restaurant","building":"yes","building:levels":"2","contact:email":"info@lousoleou.be","cuisine":"french;pizza","fair_trade":"yes","name":"Lou Soleou","opening_hours":"Mo-Th 12:00-14:00, 18:30-21:30; Fr 12:00-14:00, 18:30-22:30; Sa 18:30-22:30, Su off","organic":"yes","phone":"+32 2 385 25 35","roof:levels":"1","roof:shape":"gabled","takeaway":"yes","terrace":"yes","website":"https://lousoleou.be/","wheelchair":"no"}},{"osm_id":733085189,"type":"way","lat":50.6845878,"lon":4.3751229,"tags":{"addr:city":"Braine-l'Alleud","addr:country":"BE","addr:housenumber":"2","addr:postcode":"1420","addr:street":"Rue des Croix du Feu","amenity":"restaurant","building":"yes","cuisine":"italian","email":"info@chezrino.be","name":"Chez Rino","opening_hours":"Mo-Fr 08:30-20:00","outdoor_seating":"terrace","phone":"+32 2 384 05 26","smoking":"no","website":"https://www.chezrino.be/","wheelchair":"no"}},{"osm_id":738356724,"type":"way","lat":50.6849994,"lon":4.3751858,"tags":{"addr:city":"Braine l'Alleud","addr:country":"BE","addr:housenumber":"4","addr:postcode":"1420","addr:street":"Place de la Gare","amenity":"restaurant","building":"yes","building:levels":"2","cuisine":"chinese;cantonese;thai","name":"Chen Xi","opening_hours":"We-Mo 12:00 -14:30, 18:00 - 22:30; Tu 12:00 -14:30","outdoor_seating":"terrace","phone":"+32 2 384 36 88","takeaway":"yes","website":"https://chenxi2012168.wixsite.com/chenxi"}},{"osm_id":738356733,"type":"way","lat":50.6849792,"lon":4.374519,"tags":{"addr:city":"Braine-l'Alleud","addr:housenumber":"72","addr:postcode":"1420","addr:street":"Avenue Léon Jourez","amenity":"restaurant","building":"yes","building:levels":"3","craft":"caterer","cuisine":"chinese","delivery":"yes","internet_access":"yes","name":"Hau Wang","opening_hours":"Mo-Su 11:30-14:30, 17:30-23:00","phone":"+32 2 384 41 96","phone:mobile":"+32 488 98 51 38","roof:levels":"1","roof:orientation":"across","roof:shape":"gabled","smoking":"no","takeaway":"yes","website":"http://www.hauwang.be/en/contact","wheelchair":"yes"}},{"osm_id":762730380,"type":"way","lat":50.6852633,"lon":4.3769621,"tags":{"addr:city":"Braine-l'Alleud","addr:housenumber":"2","addr:postcode":"1420","addr:street":"Chaussée Reine Astrid","amenity":"restaurant","brand":"Pizza Hut","brand:wikidata":"Q191615","brand:wikipedia":"en:Pizza Hut","building":"yes","cuisine":"pizza","name":"Pizza Hut","opening_hours":"Mo-Su 11:30-22:00","outdoor_seating":"no","phone":"+32 2 385 41 41","website":"https://www.pizzahut.be/fr"}}],"listDefinition":{"slug":"restaurant","name":"Restaurants","query":"nwr[\"amenity\"=\"restaurant\"](area.b);","props":{"withOpening":true}}},"__N_SSG":true}